{
  "data": [{
    "address": "104 Regent St, London, ON N6A 2G4",
    "lat": 43.004198,
    "lng": -81.2652997,
    "price": "$599,900 CAD"
  },
    {
      "address": "467 Coombs Ave, London, ON N6G 1J8",
      "lat": 42.9977861,
      "lng": -81.2810638,
      "price": "$560,000 CAD"
    },
    {
      "address": "1089 The Pkwy, London, ON N6A 2W8",
      "lat": 43.0038463,
      "lng": -81.2674126,
      "price": "$599,900 CAD"
    },
    {
      "address": "547 Kininvie Dr, London, ON N6G 1P1",
      "lat": 43.00146,
      "lng": -81.28345999999999,
      "price": "$720,000 CAD"
    },
    {
      "address": "308 Ramsay Rd, London, ON N6G 1N8",
      "lat": 43.0020065,
      "lng": -81.28597049999999,
      "price": "$740,000 CAD"
    },
    {
      "address": "1116 The Pkwy, London, ON N6A 2X3",
      "lat": 43.0058789,
      "lng": -81.267133,
      "price": "$730,000 CAD"
    },
    {
      "address": "1115 The Pkwy, London, ON N6A 2X2",
      "lat": 43.0059893,
      "lng": -81.267803,
      "price": "$740,000 CAD"
    }
  ]
}